      if asdf
        redirect_to asdfasdf flash saldkf binding.pry
        return false
      end

{
   "results" : [],
   "status" : "ZERO_RESULTS"
}



{
   "results" : [
      {
         "address_components" : [
            {
               "long_name" : "40",
               "short_name" : "40",
               "types" : [ "street_number" ]
            },
            {
               "long_name" : "Pine Street",
               "short_name" : "Pine St",
               "types" : [ "route" ]
            },
            {
               "long_name" : "Financial District",
               "short_name" : "Financial District",
               "types" : [ "neighborhood", "political" ]
            },
            {
               "long_name" : "San Francisco",
               "short_name" : "SF",
               "types" : [ "locality", "political" ]
            },
            {
               "long_name" : "San Francisco County",
               "short_name" : "San Francisco County",
               "types" : [ "administrative_area_level_2", "political" ]
            },
            {
               "long_name" : "California",
               "short_name" : "CA",
               "types" : [ "administrative_area_level_1", "political" ]
            },
            {
               "long_name" : "United States",
               "short_name" : "US",
               "types" : [ "country", "political" ]
            },
            {
               "long_name" : "94111",
               "short_name" : "94111",
               "types" : [ "postal_code" ]
            }
         ],
         "formatted_address" : "40 Pine Street, San Francisco, CA 94111, USA",
         "geometry" : {
            "bounds" : {
               "northeast" : {
                  "lat" : 37.7925333,
                  "lng" : -122.3979118
               },
               "southwest" : {
                  "lat" : 37.7925189,
                  "lng" : -122.3979148
               }
            },
            "location" : {
               "lat" : 37.7925333,
               "lng" : -122.3979148
            },
            "location_type" : "RANGE_INTERPOLATED",
            "viewport" : {
               "northeast" : {
                  "lat" : 37.79387508029149,
                  "lng" : -122.3965643197085
               },
               "southwest" : {
                  "lat" : 37.79117711970849,
                  "lng" : -122.3992622802915
               }
            }
         },
         "types" : [ "street_address" ]
      },
      {
         "address_components" : [
            {
               "long_name" : "40",
               "short_name" : "40",
               "types" : [ "street_number" ]
            },
            {
               "long_name" : "Pine Street",
               "short_name" : "Pine St",
               "types" : [ "route" ]
            },
            {
               "long_name" : "Pike Place Market",
               "short_name" : "Pike Place Market",
               "types" : [ "neighborhood", "political" ]
            },
            {
               "long_name" : "Seattle",
               "short_name" : "Seattle",
               "types" : [ "locality", "political" ]
            },
            {
               "long_name" : "King County",
               "short_name" : "King County",
               "types" : [ "administrative_area_level_2", "political" ]
            },
            {
               "long_name" : "Washington",
               "short_name" : "WA",
               "types" : [ "administrative_area_level_1", "political" ]
            },
            {
               "long_name" : "United States",
               "short_name" : "US",
               "types" : [ "country", "political" ]
            },
            {
               "long_name" : "98101",
               "short_name" : "98101",
               "types" : [ "postal_code" ]
            }
         ],
         "formatted_address" : "40 Pine Street, Seattle, WA 98101, USA",
         "geometry" : {
            "bounds" : {
               "northeast" : {
                  "lat" : 47.6095073,
                  "lng" : -122.3416923
               },
               "southwest" : {
                  "lat" : 47.6094968,
                  "lng" : -122.3417023
               }
            },
            "location" : {
               "lat" : 47.6095073,
               "lng" : -122.3417023
            },
            "location_type" : "RANGE_INTERPOLATED",
            "viewport" : {
               "northeast" : {
                  "lat" : 47.6108510302915,
                  "lng" : -122.3403483197085
               },
               "southwest" : {
                  "lat" : 47.6081530697085,
                  "lng" : -122.3430462802915
               }
            }
         },
         "types" : [ "street_address" ]
      },
      {
         "address_components" : [
            {
               "long_name" : "40",
               "short_name" : "40",
               "types" : [ "street_number" ]
            },
            {
               "long_name" : "Pine Street",
               "short_name" : "Pine St",
               "types" : [ "route" ]
            },
            {
               "long_name" : "Old North End",
               "short_name" : "Old North End",
               "types" : [ "neighborhood", "political" ]
            },
            {
               "long_name" : "Burlington",
               "short_name" : "Burlington",
               "types" : [ "locality", "political" ]
            },
            {
               "long_name" : "Chittenden County",
               "short_name" : "Chittenden County",
               "types" : [ "administrative_area_level_2", "political" ]
            },
            {
               "long_name" : "Vermont",
               "short_name" : "VT",
               "types" : [ "administrative_area_level_1", "political" ]
            },
            {
               "long_name" : "United States",
               "short_name" : "US",
               "types" : [ "country", "political" ]
            },
            {
               "long_name" : "05401",
               "short_name" : "05401",
               "types" : [ "postal_code" ]
            }
         ],
         "formatted_address" : "40 Pine Street, Burlington, VT 05401, USA",
         "geometry" : {
            "bounds" : {
               "northeast" : {
                  "lat" : 44.4794242,
                  "lng" : -73.2157708
               },
               "southwest" : {
                  "lat" : 44.4794238,
                  "lng" : -73.2157893
               }
            },
            "location" : {
               "lat" : 44.4794242,
               "lng" : -73.2157708
            },
            "location_type" : "RANGE_INTERPOLATED",
            "viewport" : {
               "northeast" : {
                  "lat" : 44.48077298029149,
                  "lng" : -73.2144310697085
               },
               "southwest" : {
                  "lat" : 44.47807501970849,
                  "lng" : -73.21712903029152
               }
            }
         },
         "types" : [ "street_address" ]
      },
      {
         "address_components" : [
            {
               "long_name" : "40",
               "short_name" : "40",
               "types" : [ "street_number" ]
            },
            {
               "long_name" : "Pine Street",
               "short_name" : "Pine St",
               "types" : [ "route" ]
            },
            {
               "long_name" : "Downtown",
               "short_name" : "Downtown",
               "types" : [ "neighborhood", "political" ]
            },
            {
               "long_name" : "St. Louis",
               "short_name" : "St. Louis",
               "types" : [ "locality", "political" ]
            },
            {
               "long_name" : "Missouri",
               "short_name" : "MO",
               "types" : [ "administrative_area_level_1", "political" ]
            },
            {
               "long_name" : "United States",
               "short_name" : "US",
               "types" : [ "country", "political" ]
            },
            {
               "long_name" : "63101",
               "short_name" : "63101",
               "types" : [ "postal_code" ]
            }
         ],
         "formatted_address" : "40 Pine Street, St. Louis, MO 63101, USA",
         "geometry" : {
            "bounds" : {
               "northeast" : {
                  "lat" : 38.62671,
                  "lng" : -90.18828809999999
               },
               "southwest" : {
                  "lat" : 38.6266962,
                  "lng" : -90.18829339999999
               }
            },
            "location" : {
               "lat" : 38.6266962,
               "lng" : -90.18829339999999
            },
            "location_type" : "RANGE_INTERPOLATED",
            "viewport" : {
               "northeast" : {
                  "lat" : 38.6280520802915,
                  "lng" : -90.1869417697085
               },
               "southwest" : {
                  "lat" : 38.6253541197085,
                  "lng" : -90.1896397302915
               }
            }
         },
         "types" : [ "street_address" ]
      },
      {
         "address_components" : [
            {
               "long_name" : "40",
               "short_name" : "40",
               "types" : [ "street_number" ]
            },
            {
               "long_name" : "Pine Street",
               "short_name" : "Pine St",
               "types" : [ "route" ]
            },
            {
               "long_name" : "Original Town North",
               "short_name" : "Original Town North",
               "types" : [ "neighborhood", "political" ]
            },
            {
               "long_name" : "Abilene",
               "short_name" : "Abilene",
               "types" : [ "locality", "political" ]
            },
            {
               "long_name" : "Taylor County",
               "short_name" : "Taylor County",
               "types" : [ "administrative_area_level_2", "political" ]
            },
            {
               "long_name" : "Texas",
               "short_name" : "TX",
               "types" : [ "administrative_area_level_1", "political" ]
            },
            {
               "long_name" : "United States",
               "short_name" : "US",
               "types" : [ "country", "political" ]
            },
            {
               "long_name" : "79601",
               "short_name" : "79601",
               "types" : [ "postal_code" ]
            }
         ],
         "formatted_address" : "40 Pine Street, Abilene, TX 79601, USA",
         "geometry" : {
            "bounds" : {
               "northeast" : {
                  "lat" : 32.4491695,
                  "lng" : -99.7330925
               },
               "southwest" : {
                  "lat" : 32.4491679,
                  "lng" : -99.7331109
               }
            },
            "location" : {
               "lat" : 32.4491695,
               "lng" : -99.7331109
            },
            "location_type" : "RANGE_INTERPOLATED",
            "viewport" : {
               "northeast" : {
                  "lat" : 32.45051768029149,
                  "lng" : -99.7317527197085
               },
               "southwest" : {
                  "lat" : 32.4478197197085,
                  "lng" : -99.7344506802915
               }
            }
         },
         "types" : [ "street_address" ]
      },
      {
         "address_components" : [
            {
               "long_name" : "40",
               "short_name" : "40",
               "types" : [ "street_number" ]
            },
            {
               "long_name" : "Pine Street",
               "short_name" : "Pine St",
               "types" : [ "route" ]
            },
            {
               "long_name" : "Downtown Providence",
               "short_name" : "Downtown Providence",
               "types" : [ "neighborhood", "political" ]
            },
            {
               "long_name" : "Providence",
               "short_name" : "Providence",
               "types" : [ "locality", "political" ]
            },
            {
               "long_name" : "Providence County",
               "short_name" : "Providence County",
               "types" : [ "administrative_area_level_2", "political" ]
            },
            {
               "long_name" : "Rhode Island",
               "short_name" : "RI",
               "types" : [ "administrative_area_level_1", "political" ]
            },
            {
               "long_name" : "United States",
               "short_name" : "US",
               "types" : [ "country", "political" ]
            },
            {
               "long_name" : "02903",
               "short_name" : "02903",
               "types" : [ "postal_code" ]
            }
         ],
         "formatted_address" : "40 Pine Street, Providence, RI 02903, USA",
         "geometry" : {
            "bounds" : {
               "northeast" : {
                  "lat" : 41.8231814,
                  "lng" : -71.40933190000001
               },
               "southwest" : {
                  "lat" : 41.8231738,
                  "lng" : -71.40934729999999
               }
            },
            "location" : {
               "lat" : 41.8231738,
               "lng" : -71.40933190000001
            },
            "location_type" : "RANGE_INTERPOLATED",
            "viewport" : {
               "northeast" : {
                  "lat" : 41.8245265802915,
                  "lng" : -71.4079906197085
               },
               "southwest" : {
                  "lat" : 41.8218286197085,
                  "lng" : -71.41068858029151
               }
            }
         },
         "types" : [ "street_address" ]
      },
      {
         "address_components" : [
            {
               "long_name" : "40",
               "short_name" : "40",
               "types" : [ "street_number" ]
            },
            {
               "long_name" : "Pine Street",
               "short_name" : "Pine St",
               "types" : [ "route" ]
            },
            {
               "long_name" : "West End",
               "short_name" : "West End",
               "types" : [ "neighborhood", "political" ]
            },
            {
               "long_name" : "Portland",
               "short_name" : "Portland",
               "types" : [ "locality", "political" ]
            },
            {
               "long_name" : "Cumberland County",
               "short_name" : "Cumberland County",
               "types" : [ "administrative_area_level_2", "political" ]
            },
            {
               "long_name" : "Maine",
               "short_name" : "ME",
               "types" : [ "administrative_area_level_1", "political" ]
            },
            {
               "long_name" : "United States",
               "short_name" : "US",
               "types" : [ "country", "political" ]
            },
            {
               "long_name" : "04102",
               "short_name" : "04102",
               "types" : [ "postal_code" ]
            }
         ],
         "formatted_address" : "40 Pine Street, Portland, ME 04102, USA",
         "geometry" : {
            "location" : {
               "lat" : 43.651499,
               "lng" : -70.26790799999999
            },
            "location_type" : "ROOFTOP",
            "viewport" : {
               "northeast" : {
                  "lat" : 43.6528479802915,
                  "lng" : -70.26655901970848
               },
               "southwest" : {
                  "lat" : 43.6501500197085,
                  "lng" : -70.2692569802915
               }
            }
         },
         "types" : [ "street_address" ]
      },
      {
         "address_components" : [
            {
               "long_name" : "40",
               "short_name" : "40",
               "types" : [ "street_number" ]
            },
            {
               "long_name" : "Pine Street",
               "short_name" : "Pine St",
               "types" : [ "route" ]
            },
            {
               "long_name" : "The Chemistry",
               "short_name" : "The Chemistry",
               "types" : [ "neighborhood", "political" ]
            },
            {
               "long_name" : "Waltham",
               "short_name" : "Waltham",
               "types" : [ "locality", "political" ]
            },
            {
               "long_name" : "Middlesex County",
               "short_name" : "Middlesex County",
               "types" : [ "administrative_area_level_2", "political" ]
            },
            {
               "long_name" : "Massachusetts",
               "short_name" : "MA",
               "types" : [ "administrative_area_level_1", "political" ]
            },
            {
               "long_name" : "United States",
               "short_name" : "US",
               "types" : [ "country", "political" ]
            },
            {
               "long_name" : "02453",
               "short_name" : "02453",
               "types" : [ "postal_code" ]
            }
         ],
         "formatted_address" : "40 Pine Street, Waltham, MA 02453, USA",
         "geometry" : {
            "bounds" : {
               "northeast" : {
                  "lat" : 42.3712975,
                  "lng" : -71.23485579999999
               },
               "southwest" : {
                  "lat" : 42.3712845,
                  "lng" : -71.23486129999999
               }
            },
            "location" : {
               "lat" : 42.3712975,
               "lng" : -71.23485579999999
            },
            "location_type" : "RANGE_INTERPOLATED",
            "viewport" : {
               "northeast" : {
                  "lat" : 42.3726399802915,
                  "lng" : -71.23350956970847
               },
               "southwest" : {
                  "lat" : 42.3699420197085,
                  "lng" : -71.23620753029149
               }
            }
         },
         "types" : [ "street_address" ]
      },
      {
         "address_components" : [
            {
               "long_name" : "40",
               "short_name" : "40",
               "types" : [ "street_number" ]
            },
            {
               "long_name" : "Pine Street",
               "short_name" : "Pine St",
               "types" : [ "route" ]
            },
            {
               "long_name" : "Ironton",
               "short_name" : "Ironton",
               "types" : [ "locality", "political" ]
            },
            {
               "long_name" : "Arcadia",
               "short_name" : "Arcadia",
               "types" : [ "administrative_area_level_3", "political" ]
            },
            {
               "long_name" : "Iron County",
               "short_name" : "Iron County",
               "types" : [ "administrative_area_level_2", "political" ]
            },
            {
               "long_name" : "Missouri",
               "short_name" : "MO",
               "types" : [ "administrative_area_level_1", "political" ]
            },
            {
               "long_name" : "United States",
               "short_name" : "US",
               "types" : [ "country", "political" ]
            },
            {
               "long_name" : "63650",
               "short_name" : "63650",
               "types" : [ "postal_code" ]
            }
         ],
         "formatted_address" : "40 Pine Street, Ironton, MO 63650, USA",
         "geometry" : {
            "bounds" : {
               "northeast" : {
                  "lat" : 37.5959314,
                  "lng" : -90.63827139999999
               },
               "southwest" : {
                  "lat" : 37.5959268,
                  "lng" : -90.63828889999999
               }
            },
            "location" : {
               "lat" : 37.5959314,
               "lng" : -90.63827139999999
            },
            "location_type" : "RANGE_INTERPOLATED",
            "viewport" : {
               "northeast" : {
                  "lat" : 37.5972780802915,
                  "lng" : -90.63693116970849
               },
               "southwest" : {
                  "lat" : 37.5945801197085,
                  "lng" : -90.63962913029151
               }
            }
         },
         "types" : [ "street_address" ]
      },
      {
         "address_components" : [
            {
               "long_name" : "40",
               "short_name" : "40",
               "types" : [ "street_number" ]
            },
            {
               "long_name" : "Pine Street",
               "short_name" : "Pine St",
               "types" : [ "route" ]
            },
            {
               "long_name" : "Norfolk",
               "short_name" : "Norfolk",
               "types" : [ "locality", "political" ]
            },
            {
               "long_name" : "Norfolk County",
               "short_name" : "Norfolk County",
               "types" : [ "administrative_area_level_2", "political" ]
            },
            {
               "long_name" : "Massachusetts",
               "short_name" : "MA",
               "types" : [ "administrative_area_level_1", "political" ]
            },
            {
               "long_name" : "United States",
               "short_name" : "US",
               "types" : [ "country", "political" ]
            },
            {
               "long_name" : "02056",
               "short_name" : "02056",
               "types" : [ "postal_code" ]
            }
         ],
         "formatted_address" : "40 Pine Street, Norfolk, MA 02056, USA",
         "geometry" : {
            "location" : {
               "lat" : 42.0824149,
               "lng" : -71.2854739
            },
            "location_type" : "ROOFTOP",
            "viewport" : {
               "northeast" : {
                  "lat" : 42.08376388029151,
                  "lng" : -71.28412491970849
               },
               "southwest" : {
                  "lat" : 42.08106591970851,
                  "lng" : -71.28682288029151
               }
            }
         },
         "types" : [ "street_address" ]
      },
      {
         "address_components" : [
            {
               "long_name" : "40",
               "short_name" : "40",
               "types" : [ "street_number" ]
            },
            {
               "long_name" : "Pine Street",
               "short_name" : "Pine St",
               "types" : [ "route" ]
            },
            {
               "long_name" : "Campobello",
               "short_name" : "Campobello",
               "types" : [ "locality", "political" ]
            },
            {
               "long_name" : "Spartanburg County",
               "short_name" : "Spartanburg County",
               "types" : [ "administrative_area_level_2", "political" ]
            },
            {
               "long_name" : "South Carolina",
               "short_name" : "SC",
               "types" : [ "administrative_area_level_1", "political" ]
            },
            {
               "long_name" : "United States",
               "short_name" : "US",
               "types" : [ "country", "political" ]
            },
            {
               "long_name" : "29322",
               "short_name" : "29322",
               "types" : [ "postal_code" ]
            }
         ],
         "formatted_address" : "40 Pine Street, Campobello, SC 29322, USA",
         "geometry" : {
            "bounds" : {
               "northeast" : {
                  "lat" : 35.1191136,
                  "lng" : -82.1517683
               },
               "southwest" : {
                  "lat" : 35.1191024,
                  "lng" : -82.1517807
               }
            },
            "location" : {
               "lat" : 35.1191136,
               "lng" : -82.1517683
            },
            "location_type" : "RANGE_INTERPOLATED",
            "viewport" : {
               "northeast" : {
                  "lat" : 35.1204569802915,
                  "lng" : -82.15042551970851
               },
               "southwest" : {
                  "lat" : 35.1177590197085,
                  "lng" : -82.15312348029151
               }
            }
         },
         "types" : [ "street_address" ]
      },
      {
         "address_components" : [
            {
               "long_name" : "40",
               "short_name" : "40",
               "types" : [ "street_number" ]
            },
            {
               "long_name" : "Pine Street",
               "short_name" : "Pine St",
               "types" : [ "route" ]
            },
            {
               "long_name" : "Feeding Hills",
               "short_name" : "Feeding Hills",
               "types" : [ "neighborhood", "political" ]
            },
            {
               "long_name" : "Agawam",
               "short_name" : "Agawam",
               "types" : [ "locality", "political" ]
            },
            {
               "long_name" : "Hampden County",
               "short_name" : "Hampden County",
               "types" : [ "administrative_area_level_2", "political" ]
            },
            {
               "long_name" : "Massachusetts",
               "short_name" : "MA",
               "types" : [ "administrative_area_level_1", "political" ]
            },
            {
               "long_name" : "United States",
               "short_name" : "US",
               "types" : [ "country", "political" ]
            },
            {
               "long_name" : "01030",
               "short_name" : "01030",
               "types" : [ "postal_code" ]
            }
         ],
         "formatted_address" : "40 Pine Street, Feeding Hills, MA 01030, USA",
         "geometry" : {
            "bounds" : {
               "northeast" : {
                  "lat" : 42.04820309999999,
                  "lng" : -72.6784139
               },
               "southwest" : {
                  "lat" : 42.0481967,
                  "lng" : -72.67843019999999
               }
            },
            "location" : {
               "lat" : 42.04820309999999,
               "lng" : -72.67843019999999
            },
            "location_type" : "RANGE_INTERPOLATED",
            "viewport" : {
               "northeast" : {
                  "lat" : 42.0495488802915,
                  "lng" : -72.6770730697085
               },
               "southwest" : {
                  "lat" : 42.0468509197085,
                  "lng" : -72.6797710302915
               }
            }
         },
         "types" : [ "street_address" ]
      },
      {
         "address_components" : [
            {
               "long_name" : "40",
               "short_name" : "40",
               "types" : [ "street_number" ]
            },
            {
               "long_name" : "Pine Street",
               "short_name" : "Pine St",
               "types" : [ "route" ]
            },
            {
               "long_name" : "Tamaqua",
               "short_name" : "Tamaqua",
               "types" : [ "locality", "political" ]
            },
            {
               "long_name" : "Schuylkill County",
               "short_name" : "Schuylkill County",
               "types" : [ "administrative_area_level_2", "political" ]
            },
            {
               "long_name" : "Pennsylvania",
               "short_name" : "PA",
               "types" : [ "administrative_area_level_1", "political" ]
            },
            {
               "long_name" : "United States",
               "short_name" : "US",
               "types" : [ "country", "political" ]
            },
            {
               "long_name" : "18252",
               "short_name" : "18252",
               "types" : [ "postal_code" ]
            }
         ],
         "formatted_address" : "40 Pine Street, Tamaqua, PA 18252, USA",
         "geometry" : {
            "bounds" : {
               "northeast" : {
                  "lat" : 40.7981453,
                  "lng" : -75.96822279999999
               },
               "southwest" : {
                  "lat" : 40.7981442,
                  "lng" : -75.96824119999999
               }
            },
            "location" : {
               "lat" : 40.7981442,
               "lng" : -75.96824119999999
            },
            "location_type" : "RANGE_INTERPOLATED",
            "viewport" : {
               "northeast" : {
                  "lat" : 40.79949373029149,
                  "lng" : -75.96688301970848
               },
               "southwest" : {
                  "lat" : 40.7967957697085,
                  "lng" : -75.9695809802915
               }
            }
         },
         "types" : [ "street_address" ]
      },
      {
         "address_components" : [
            {
               "long_name" : "40",
               "short_name" : "40",
               "types" : [ "street_number" ]
            },
            {
               "long_name" : "Pine Street",
               "short_name" : "Pine St",
               "types" : [ "route" ]
            },
            {
               "long_name" : "Gallipolis",
               "short_name" : "Gallipolis",
               "types" : [ "locality", "political" ]
            },
            {
               "long_name" : "Gallipolis",
               "short_name" : "Gallipolis",
               "types" : [ "administrative_area_level_3", "political" ]
            },
            {
               "long_name" : "Gallia County",
               "short_name" : "Gallia County",
               "types" : [ "administrative_area_level_2", "political" ]
            },
            {
               "long_name" : "Ohio",
               "short_name" : "OH",
               "types" : [ "administrative_area_level_1", "political" ]
            },
            {
               "long_name" : "United States",
               "short_name" : "US",
               "types" : [ "country", "political" ]
            },
            {
               "long_name" : "45631",
               "short_name" : "45631",
               "types" : [ "postal_code" ]
            }
         ],
         "formatted_address" : "40 Pine Street, Gallipolis, OH 45631, USA",
         "geometry" : {
            "bounds" : {
               "northeast" : {
                  "lat" : 38.8134416,
                  "lng" : -82.1972576
               },
               "southwest" : {
                  "lat" : 38.8134324,
                  "lng" : -82.1972718
               }
            },
            "location" : {
               "lat" : 38.8134416,
               "lng" : -82.1972576
            },
            "location_type" : "RANGE_INTERPOLATED",
            "viewport" : {
               "northeast" : {
                  "lat" : 38.81478598029149,
                  "lng" : -82.19591571970851
               },
               "southwest" : {
                  "lat" : 38.8120880197085,
                  "lng" : -82.19861368029152
               }
            }
         },
         "types" : [ "street_address" ]
      },
      {
         "address_components" : [
            {
               "long_name" : "40",
               "short_name" : "40",
               "types" : [ "street_number" ]
            },
            {
               "long_name" : "Pine Street",
               "short_name" : "Pine St",
               "types" : [ "route" ]
            },
            {
               "long_name" : "Dover",
               "short_name" : "Dover",
               "types" : [ "locality", "political" ]
            },
            {
               "long_name" : "Norfolk County",
               "short_name" : "Norfolk County",
               "types" : [ "administrative_area_level_2", "political" ]
            },
            {
               "long_name" : "Massachusetts",
               "short_name" : "MA",
               "types" : [ "administrative_area_level_1", "political" ]
            },
            {
               "long_name" : "United States",
               "short_name" : "US",
               "types" : [ "country", "political" ]
            },
            {
               "long_name" : "02030",
               "short_name" : "02030",
               "types" : [ "postal_code" ]
            }
         ],
         "formatted_address" : "40 Pine Street, Dover, MA 02030, USA",
         "geometry" : {
            "bounds" : {
               "northeast" : {
                  "lat" : 42.2285932,
                  "lng" : -71.2808939
               },
               "southwest" : {
                  "lat" : 42.2285924,
                  "lng" : -71.2809123
               }
            },
            "location" : {
               "lat" : 42.2285924,
               "lng" : -71.2808939
            },
            "location_type" : "RANGE_INTERPOLATED",
            "viewport" : {
               "northeast" : {
                  "lat" : 42.22994178029149,
                  "lng" : -71.27955411970849
               },
               "southwest" : {
                  "lat" : 42.2272438197085,
                  "lng" : -71.2822520802915
               }
            }
         },
         "types" : [ "street_address" ]
      },
      {
         "address_components" : [
            {
               "long_name" : "40",
               "short_name" : "40",
               "types" : [ "street_number" ]
            },
            {
               "long_name" : "Pine Street",
               "short_name" : "Pine St",
               "types" : [ "route" ]
            },
            {
               "long_name" : "Medfield",
               "short_name" : "Medfield",
               "types" : [ "neighborhood", "political" ]
            },
            {
               "long_name" : "Medfield",
               "short_name" : "Medfield",
               "types" : [ "locality", "political" ]
            },
            {
               "long_name" : "Norfolk County",
               "short_name" : "Norfolk County",
               "types" : [ "administrative_area_level_2", "political" ]
            },
            {
               "long_name" : "Massachusetts",
               "short_name" : "MA",
               "types" : [ "administrative_area_level_1", "political" ]
            },
            {
               "long_name" : "United States",
               "short_name" : "US",
               "types" : [ "country", "political" ]
            },
            {
               "long_name" : "02052",
               "short_name" : "02052",
               "types" : [ "postal_code" ]
            }
         ],
         "formatted_address" : "40 Pine Street, Medfield, MA 02052, USA",
         "geometry" : {
            "bounds" : {
               "northeast" : {
                  "lat" : 42.1991155,
                  "lng" : -71.3071516
               },
               "southwest" : {
                  "lat" : 42.1991087,
                  "lng" : -71.3071676
               }
            },
            "location" : {
               "lat" : 42.1991155,
               "lng" : -71.3071676
            },
            "location_type" : "RANGE_INTERPOLATED",
            "viewport" : {
               "northeast" : {
                  "lat" : 42.20046108029149,
                  "lng" : -71.30581061970848
               },
               "southwest" : {
                  "lat" : 42.1977631197085,
                  "lng" : -71.3085085802915
               }
            }
         },
         "types" : [ "street_address" ]
      },
      {
         "address_components" : [
            {
               "long_name" : "40",
               "short_name" : "40",
               "types" : [ "street_number" ]
            },
            {
               "long_name" : "Pine Street",
               "short_name" : "Pine St",
               "types" : [ "route" ]
            },
            {
               "long_name" : "Potsdam",
               "short_name" : "Potsdam",
               "types" : [ "locality", "political" ]
            },
            {
               "long_name" : "Potsdam",
               "short_name" : "Potsdam",
               "types" : [ "administrative_area_level_3", "political" ]
            },
            {
               "long_name" : "St. Lawrence County",
               "short_name" : "St Lawrence County",
               "types" : [ "administrative_area_level_2", "political" ]
            },
            {
               "long_name" : "New York",
               "short_name" : "NY",
               "types" : [ "administrative_area_level_1", "political" ]
            },
            {
               "long_name" : "United States",
               "short_name" : "US",
               "types" : [ "country", "political" ]
            },
            {
               "long_name" : "13676",
               "short_name" : "13676",
               "types" : [ "postal_code" ]
            }
         ],
         "formatted_address" : "40 Pine Street, Potsdam, NY 13676, USA",
         "geometry" : {
            "bounds" : {
               "northeast" : {
                  "lat" : 44.67081839999999,
                  "lng" : -74.99752819999999
               },
               "southwest" : {
                  "lat" : 44.6708109,
                  "lng" : -74.9975434
               }
            },
            "location" : {
               "lat" : 44.6708109,
               "lng" : -74.9975434
            },
            "location_type" : "RANGE_INTERPOLATED",
            "viewport" : {
               "northeast" : {
                  "lat" : 44.67216363029149,
                  "lng" : -74.9961868197085
               },
               "southwest" : {
                  "lat" : 44.66946566970849,
                  "lng" : -74.9988847802915
               }
            }
         },
         "types" : [ "street_address" ]
      },
      {
         "address_components" : [
            {
               "long_name" : "40",
               "short_name" : "40",
               "types" : [ "street_number" ]
            },
            {
               "long_name" : "Pine Street",
               "short_name" : "Pine St",
               "types" : [ "route" ]
            },
            {
               "long_name" : "Columbia",
               "short_name" : "Columbia",
               "types" : [ "locality", "political" ]
            },
            {
               "long_name" : "Tolland County",
               "short_name" : "Tolland County",
               "types" : [ "administrative_area_level_2", "political" ]
            },
            {
               "long_name" : "Connecticut",
               "short_name" : "CT",
               "types" : [ "administrative_area_level_1", "political" ]
            },
            {
               "long_name" : "United States",
               "short_name" : "US",
               "types" : [ "country", "political" ]
            },
            {
               "long_name" : "06237",
               "short_name" : "06237",
               "types" : [ "postal_code" ]
            }
         ],
         "formatted_address" : "40 Pine Street, Columbia, CT 06237, USA",
         "geometry" : {
            "bounds" : {
               "northeast" : {
                  "lat" : 41.6849437,
                  "lng" : -72.3078611
               },
               "southwest" : {
                  "lat" : 41.6849361,
                  "lng" : -72.30787649999999
               }
            },
            "location" : {
               "lat" : 41.6849361,
               "lng" : -72.30787649999999
            },
            "location_type" : "RANGE_INTERPOLATED",
            "viewport" : {
               "northeast" : {
                  "lat" : 41.68628888029149,
                  "lng" : -72.30651981970848
               },
               "southwest" : {
                  "lat" : 41.6835909197085,
                  "lng" : -72.3092177802915
               }
            }
         },
         "types" : [ "street_address" ]
      },
      {
         "address_components" : [
            {
               "long_name" : "40",
               "short_name" : "40",
               "types" : [ "street_number" ]
            },
            {
               "long_name" : "Pine Street",
               "short_name" : "Pine St",
               "types" : [ "route" ]
            },
            {
               "long_name" : "Englewood",
               "short_name" : "Englewood",
               "types" : [ "locality", "political" ]
            },
            {
               "long_name" : "Sarasota County",
               "short_name" : "Sarasota County",
               "types" : [ "administrative_area_level_2", "political" ]
            },
            {
               "long_name" : "Florida",
               "short_name" : "FL",
               "types" : [ "administrative_area_level_1", "political" ]
            },
            {
               "long_name" : "United States",
               "short_name" : "US",
               "types" : [ "country", "political" ]
            },
            {
               "long_name" : "34223",
               "short_name" : "34223",
               "types" : [ "postal_code" ]
            }
         ],
         "formatted_address" : "40 Pine Street, Englewood, FL 34223, USA",
         "geometry" : {
            "bounds" : {
               "northeast" : {
                  "lat" : 26.9615725,
                  "lng" : -82.33730299999999
               },
               "southwest" : {
                  "lat" : 26.9615716,
                  "lng" : -82.33732139999999
               }
            },
            "location" : {
               "lat" : 26.9615716,
               "lng" : -82.33732139999999
            },
            "location_type" : "RANGE_INTERPOLATED",
            "viewport" : {
               "northeast" : {
                  "lat" : 26.9629210302915,
                  "lng" : -82.33596321970849
               },
               "southwest" : {
                  "lat" : 26.9602230697085,
                  "lng" : -82.3386611802915
               }
            }
         },
         "types" : [ "street_address" ]
      },
      {
         "address_components" : [
            {
               "long_name" : "40",
               "short_name" : "40",
               "types" : [ "street_number" ]
            },
            {
               "long_name" : "Pine Street",
               "short_name" : "Pine St",
               "types" : [ "route" ]
            },
            {
               "long_name" : "Hector",
               "short_name" : "Hector",
               "types" : [ "locality", "political" ]
            },
            {
               "long_name" : "Jackson",
               "short_name" : "Jackson",
               "types" : [ "administrative_area_level_3", "political" ]
            },
            {
               "long_name" : "Pope County",
               "short_name" : "Pope County",
               "types" : [ "administrative_area_level_2", "political" ]
            },
            {
               "long_name" : "Arkansas",
               "short_name" : "AR",
               "types" : [ "administrative_area_level_1", "political" ]
            },
            {
               "long_name" : "United States",
               "short_name" : "US",
               "types" : [ "country", "political" ]
            },
            {
               "long_name" : "72843",
               "short_name" : "72843",
               "types" : [ "postal_code" ]
            }
         ],
         "formatted_address" : "40 Pine Street, Hector, AR 72843, USA",
         "geometry" : {
            "bounds" : {
               "northeast" : {
                  "lat" : 35.4644531,
                  "lng" : -92.9743344
               },
               "southwest" : {
                  "lat" : 35.464438,
                  "lng" : -92.9743345
               }
            },
            "location" : {
               "lat" : 35.464438,
               "lng" : -92.9743345
            },
            "location_type" : "RANGE_INTERPOLATED",
            "viewport" : {
               "northeast" : {
                  "lat" : 35.4657945302915,
                  "lng" : -92.97298546970849
               },
               "southwest" : {
                  "lat" : 35.4630965697085,
                  "lng" : -92.9756834302915
               }
            }
         },
         "types" : [ "street_address" ]
      },
      {
         "address_components" : [
            {
               "long_name" : "40",
               "short_name" : "40",
               "types" : [ "street_number" ]
            },
            {
               "long_name" : "Pine Street",
               "short_name" : "Pine St",
               "types" : [ "route" ]
            },
            {
               "long_name" : "Manchester-by-the-Sea",
               "short_name" : "Manchester-by-the-Sea",
               "types" : [ "locality", "political" ]
            },
            {
               "long_name" : "Essex County",
               "short_name" : "Essex County",
               "types" : [ "administrative_area_level_2", "political" ]
            },
            {
               "long_name" : "Massachusetts",
               "short_name" : "MA",
               "types" : [ "administrative_area_level_1", "political" ]
            },
            {
               "long_name" : "United States",
               "short_name" : "US",
               "types" : [ "country", "political" ]
            },
            {
               "long_name" : "01944",
               "short_name" : "01944",
               "types" : [ "postal_code" ]
            }
         ],
         "formatted_address" : "40 Pine Street, Manchester-by-the-Sea, MA 01944, USA",
         "geometry" : {
            "location" : {
               "lat" : 42.57720399999999,
               "lng" : -70.77687399999999
            },
            "location_type" : "ROOFTOP",
            "viewport" : {
               "northeast" : {
                  "lat" : 42.5785529802915,
                  "lng" : -70.77552501970848
               },
               "southwest" : {
                  "lat" : 42.5758550197085,
                  "lng" : -70.7782229802915
               }
            }
         },
         "types" : [ "street_address" ]
      },
      {
         "address_components" : [
            {
               "long_name" : "40",
               "short_name" : "40",
               "types" : [ "street_number" ]
            },
            {
               "long_name" : "Pine Street",
               "short_name" : "Pine St",
               "types" : [ "route" ]
            },
            {
               "long_name" : "North Seekonk",
               "short_name" : "North Seekonk",
               "types" : [ "sublocality_level_1", "sublocality", "political" ]
            },
            {
               "long_name" : "Seekonk",
               "short_name" : "Seekonk",
               "types" : [ "locality", "political" ]
            },
            {
               "long_name" : "Bristol County",
               "short_name" : "Bristol County",
               "types" : [ "administrative_area_level_2", "political" ]
            },
            {
               "long_name" : "Massachusetts",
               "short_name" : "MA",
               "types" : [ "administrative_area_level_1", "political" ]
            },
            {
               "long_name" : "United States",
               "short_name" : "US",
               "types" : [ "country", "political" ]
            },
            {
               "long_name" : "02771",
               "short_name" : "02771",
               "types" : [ "postal_code" ]
            }
         ],
         "formatted_address" : "40 Pine Street, Seekonk, MA 02771, USA",
         "geometry" : {
            "bounds" : {
               "northeast" : {
                  "lat" : 41.8887108,
                  "lng" : -71.3300843
               },
               "southwest" : {
                  "lat" : 41.8886983,
                  "lng" : -71.33009179999999
               }
            },
            "location" : {
               "lat" : 41.8887108,
               "lng" : -71.3300843
            },
            "location_type" : "RANGE_INTERPOLATED",
            "viewport" : {
               "northeast" : {
                  "lat" : 41.8900535302915,
                  "lng" : -71.32873906970849
               },
               "southwest" : {
                  "lat" : 41.8873555697085,
                  "lng" : -71.3314370302915
               }
            }
         },
         "types" : [ "street_address" ]
      },
      {
         "address_components" : [
            {
               "long_name" : "40",
               "short_name" : "40",
               "types" : [ "street_number" ]
            },
            {
               "long_name" : "Pine Street",
               "short_name" : "Pine St",
               "types" : [ "route" ]
            },
            {
               "long_name" : "Rehoboth",
               "short_name" : "Rehoboth",
               "types" : [ "locality", "political" ]
            },
            {
               "long_name" : "Bristol County",
               "short_name" : "Bristol County",
               "types" : [ "administrative_area_level_2", "political" ]
            },
            {
               "long_name" : "Massachusetts",
               "short_name" : "MA",
               "types" : [ "administrative_area_level_1", "political" ]
            },
            {
               "long_name" : "United States",
               "short_name" : "US",
               "types" : [ "country", "political" ]
            },
            {
               "long_name" : "02769",
               "short_name" : "02769",
               "types" : [ "postal_code" ]
            }
         ],
         "formatted_address" : "40 Pine Street, Rehoboth, MA 02769, USA",
         "geometry" : {
            "bounds" : {
               "northeast" : {
                  "lat" : 41.86947019999999,
                  "lng" : -71.2966217
               },
               "southwest" : {
                  "lat" : 41.8694592,
                  "lng" : -71.2966328
               }
            },
            "location" : {
               "lat" : 41.8694592,
               "lng" : -71.2966328
            },
            "location_type" : "RANGE_INTERPOLATED",
            "viewport" : {
               "northeast" : {
                  "lat" : 41.8708136802915,
                  "lng" : -71.2952782697085
               },
               "southwest" : {
                  "lat" : 41.8681157197085,
                  "lng" : -71.29797623029151
               }
            }
         },
         "types" : [ "street_address" ]
      },
      {
         "address_components" : [
            {
               "long_name" : "40",
               "short_name" : "40",
               "types" : [ "street_number" ]
            },
            {
               "long_name" : "Pine Street",
               "short_name" : "Pine St",
               "types" : [ "route" ]
            },
            {
               "long_name" : "Dover-Foxcroft",
               "short_name" : "Dover-Foxcroft",
               "types" : [ "neighborhood", "political" ]
            },
            {
               "long_name" : "Dover-Foxcroft",
               "short_name" : "Dover-Foxcroft",
               "types" : [ "locality", "political" ]
            },
            {
               "long_name" : "Piscataquis County",
               "short_name" : "Piscataquis County",
               "types" : [ "administrative_area_level_2", "political" ]
            },
            {
               "long_name" : "Maine",
               "short_name" : "ME",
               "types" : [ "administrative_area_level_1", "political" ]
            },
            {
               "long_name" : "United States",
               "short_name" : "US",
               "types" : [ "country", "political" ]
            },
            {
               "long_name" : "04426",
               "short_name" : "04426",
               "types" : [ "postal_code" ]
            }
         ],
         "formatted_address" : "40 Pine Street, Dover-Foxcroft, ME 04426, USA",
         "geometry" : {
            "bounds" : {
               "northeast" : {
                  "lat" : 45.1810365,
                  "lng" : -69.2403736
               },
               "southwest" : {
                  "lat" : 45.18102409999999,
                  "lng" : -69.2403791
               }
            },
            "location" : {
               "lat" : 45.1810365,
               "lng" : -69.2403791
            },
            "location_type" : "RANGE_INTERPOLATED",
            "viewport" : {
               "northeast" : {
                  "lat" : 45.18237928029149,
                  "lng" : -69.2390273697085
               },
               "southwest" : {
                  "lat" : 45.1796813197085,
                  "lng" : -69.2417253302915
               }
            }
         },
         "types" : [ "street_address" ]
      },
      {
         "address_components" : [
            {
               "long_name" : "40",
               "short_name" : "40",
               "types" : [ "street_number" ]
            },
            {
               "long_name" : "Pine Street",
               "short_name" : "Pine St",
               "types" : [ "route" ]
            },
            {
               "long_name" : "Catasauqua",
               "short_name" : "Catasauqua",
               "types" : [ "locality", "political" ]
            },
            {
               "long_name" : "Lehigh County",
               "short_name" : "Lehigh County",
               "types" : [ "administrative_area_level_2", "political" ]
            },
            {
               "long_name" : "Pennsylvania",
               "short_name" : "PA",
               "types" : [ "administrative_area_level_1", "political" ]
            },
            {
               "long_name" : "United States",
               "short_name" : "US",
               "types" : [ "country", "political" ]
            },
            {
               "long_name" : "18032",
               "short_name" : "18032",
               "types" : [ "postal_code" ]
            }
         ],
         "formatted_address" : "40 Pine Street, Catasauqua, PA 18032, USA",
         "geometry" : {
            "bounds" : {
               "northeast" : {
                  "lat" : 40.6537561,
                  "lng" : -75.47642379999999
               },
               "southwest" : {
                  "lat" : 40.6537454,
                  "lng" : -75.4764356
               }
            },
            "location" : {
               "lat" : 40.6537561,
               "lng" : -75.4764356
            },
            "location_type" : "RANGE_INTERPOLATED",
            "viewport" : {
               "northeast" : {
                  "lat" : 40.6550997302915,
                  "lng" : -75.47508071970849
               },
               "southwest" : {
                  "lat" : 40.6524017697085,
                  "lng" : -75.47777868029151
               }
            }
         },
         "types" : [ "street_address" ]
      },
      {
         "address_components" : [
            {
               "long_name" : "40",
               "short_name" : "40",
               "types" : [ "street_number" ]
            },
            {
               "long_name" : "Pine Street",
               "short_name" : "Pine St",
               "types" : [ "route" ]
            },
            {
               "long_name" : "Danvers",
               "short_name" : "Danvers",
               "types" : [ "locality", "political" ]
            },
            {
               "long_name" : "Essex County",
               "short_name" : "Essex County",
               "types" : [ "administrative_area_level_2", "political" ]
            },
            {
               "long_name" : "Massachusetts",
               "short_name" : "MA",
               "types" : [ "administrative_area_level_1", "political" ]
            },
            {
               "long_name" : "United States",
               "short_name" : "US",
               "types" : [ "country", "political" ]
            },
            {
               "long_name" : "01923",
               "short_name" : "01923",
               "types" : [ "postal_code" ]
            }
         ],
         "formatted_address" : "40 Pine Street, Danvers, MA 01923, USA",
         "geometry" : {
            "bounds" : {
               "northeast" : {
                  "lat" : 42.5692108,
                  "lng" : -70.9505018
               },
               "southwest" : {
                  "lat" : 42.5692086,
                  "lng" : -70.95052009999999
               }
            },
            "location" : {
               "lat" : 42.5692086,
               "lng" : -70.9505018
            },
            "location_type" : "RANGE_INTERPOLATED",
            "viewport" : {
               "northeast" : {
                  "lat" : 42.5705586802915,
                  "lng" : -70.9491619697085
               },
               "southwest" : {
                  "lat" : 42.5678607197085,
                  "lng" : -70.9518599302915
               }
            }
         },
         "types" : [ "street_address" ]
      },
      {
         "address_components" : [
            {
               "long_name" : "40",
               "short_name" : "40",
               "types" : [ "street_number" ]
            },
            {
               "long_name" : "Pine Street",
               "short_name" : "Pine St",
               "types" : [ "route" ]
            },
            {
               "long_name" : "Highlands",
               "short_name" : "Highlands",
               "types" : [ "neighborhood", "political" ]
            },
            {
               "long_name" : "Lowell",
               "short_name" : "Lowell",
               "types" : [ "locality", "political" ]
            },
            {
               "long_name" : "Middlesex County",
               "short_name" : "Middlesex County",
               "types" : [ "administrative_area_level_2", "political" ]
            },
            {
               "long_name" : "Massachusetts",
               "short_name" : "MA",
               "types" : [ "administrative_area_level_1", "political" ]
            },
            {
               "long_name" : "United States",
               "short_name" : "US",
               "types" : [ "country", "political" ]
            },
            {
               "long_name" : "01851",
               "short_name" : "01851",
               "types" : [ "postal_code" ]
            }
         ],
         "formatted_address" : "40 Pine Street, Lowell, MA 01851, USA",
         "geometry" : {
            "bounds" : {
               "northeast" : {
                  "lat" : 42.6344253,
                  "lng" : -71.32854159999999
               },
               "southwest" : {
                  "lat" : 42.6344139,
                  "lng" : -71.3285516
               }
            },
            "location" : {
               "lat" : 42.6344139,
               "lng" : -71.32854159999999
            },
            "location_type" : "RANGE_INTERPOLATED",
            "viewport" : {
               "northeast" : {
                  "lat" : 42.6357685802915,
                  "lng" : -71.3271976197085
               },
               "southwest" : {
                  "lat" : 42.6330706197085,
                  "lng" : -71.32989558029151
               }
            }
         },
         "types" : [ "street_address" ]
      },
      {
         "address_components" : [
            {
               "long_name" : "40",
               "short_name" : "40",
               "types" : [ "street_number" ]
            },
            {
               "long_name" : "Pine Street",
               "short_name" : "Pine St",
               "types" : [ "route" ]
            },
            {
               "long_name" : "North Amherst",
               "short_name" : "North Amherst",
               "types" : [ "sublocality_level_1", "sublocality", "political" ]
            },
            {
               "long_name" : "Amherst",
               "short_name" : "Amherst",
               "types" : [ "locality", "political" ]
            },
            {
               "long_name" : "Hampshire County",
               "short_name" : "Hampshire County",
               "types" : [ "administrative_area_level_2", "political" ]
            },
            {
               "long_name" : "Massachusetts",
               "short_name" : "MA",
               "types" : [ "administrative_area_level_1", "political" ]
            },
            {
               "long_name" : "United States",
               "short_name" : "US",
               "types" : [ "country", "political" ]
            },
            {
               "long_name" : "01002",
               "short_name" : "01002",
               "types" : [ "postal_code" ]
            }
         ],
         "formatted_address" : "40 Pine Street, Amherst, MA 01002, USA",
         "geometry" : {
            "bounds" : {
               "northeast" : {
                  "lat" : 42.4101387,
                  "lng" : -72.5289777
               },
               "southwest" : {
                  "lat" : 42.4101252,
                  "lng" : -72.5289801
               }
            },
            "location" : {
               "lat" : 42.4101387,
               "lng" : -72.5289801
            },
            "location_type" : "RANGE_INTERPOLATED",
            "viewport" : {
               "northeast" : {
                  "lat" : 42.4114809302915,
                  "lng" : -72.5276299197085
               },
               "southwest" : {
                  "lat" : 42.4087829697085,
                  "lng" : -72.53032788029151
               }
            }
         },
         "types" : [ "street_address" ]
      },
      {
         "address_components" : [
            {
               "long_name" : "40",
               "short_name" : "40",
               "types" : [ "street_number" ]
            },
            {
               "long_name" : "Pine Street",
               "short_name" : "Pine St",
               "types" : [ "route" ]
            },
            {
               "long_name" : "Contoocook",
               "short_name" : "Contoocook",
               "types" : [ "sublocality_level_1", "sublocality", "political" ]
            },
            {
               "long_name" : "Hopkinton",
               "short_name" : "Hopkinton",
               "types" : [ "locality", "political" ]
            },
            {
               "long_name" : "Merrimack County",
               "short_name" : "Merrimack County",
               "types" : [ "administrative_area_level_2", "political" ]
            },
            {
               "long_name" : "New Hampshire",
               "short_name" : "NH",
               "types" : [ "administrative_area_level_1", "political" ]
            },
            {
               "long_name" : "United States",
               "short_name" : "US",
               "types" : [ "country", "political" ]
            },
            {
               "long_name" : "03229",
               "short_name" : "03229",
               "types" : [ "postal_code" ]
            }
         ],
         "formatted_address" : "40 Pine Street, Contoocook, NH 03229, USA",
         "geometry" : {
            "bounds" : {
               "northeast" : {
                  "lat" : 43.2232164,
                  "lng" : -71.7157727
               },
               "southwest" : {
                  "lat" : 43.2232051,
                  "lng" : -71.7157826
               }
            },
            "location" : {
               "lat" : 43.2232164,
               "lng" : -71.7157826
            },
            "location_type" : "RANGE_INTERPOLATED",
            "viewport" : {
               "northeast" : {
                  "lat" : 43.2245597302915,
                  "lng" : -71.7144286697085
               },
               "southwest" : {
                  "lat" : 43.2218617697085,
                  "lng" : -71.7171266302915
               }
            }
         },
         "types" : [ "street_address" ]
      },
      {
         "address_components" : [
            {
               "long_name" : "40",
               "short_name" : "40",
               "types" : [ "street_number" ]
            },
            {
               "long_name" : "Pine Street",
               "short_name" : "Pine St",
               "types" : [ "route" ]
            },
            {
               "long_name" : "Hyannis",
               "short_name" : "Hyannis",
               "types" : [ "sublocality_level_1", "sublocality", "political" ]
            },
            {
               "long_name" : "Barnstable",
               "short_name" : "Barnstable",
               "types" : [ "locality", "political" ]
            },
            {
               "long_name" : "Barnstable County",
               "short_name" : "Barnstable County",
               "types" : [ "administrative_area_level_2", "political" ]
            },
            {
               "long_name" : "Massachusetts",
               "short_name" : "MA",
               "types" : [ "administrative_area_level_1", "political" ]
            },
            {
               "long_name" : "United States",
               "short_name" : "US",
               "types" : [ "country", "political" ]
            },
            {
               "long_name" : "02601",
               "short_name" : "02601",
               "types" : [ "postal_code" ]
            }
         ],
         "formatted_address" : "40 Pine Street, Hyannis, MA 02601, USA",
         "geometry" : {
            "bounds" : {
               "northeast" : {
                  "lat" : 41.6526819,
                  "lng" : -70.3212427
               },
               "southwest" : {
                  "lat" : 41.6526685,
                  "lng" : -70.32124689999999
               }
            },
            "location" : {
               "lat" : 41.6526819,
               "lng" : -70.32124689999999
            },
            "location_type" : "RANGE_INTERPOLATED",
            "viewport" : {
               "northeast" : {
                  "lat" : 41.65402418029151,
                  "lng" : -70.31989581970849
               },
               "southwest" : {
                  "lat" : 41.65132621970851,
                  "lng" : -70.3225937802915
               }
            }
         },
         "types" : [ "street_address" ]
      }
   ],
   "status" : "OK"
}

